[
  {
    "id": 1,
    "name": "扬帆老长沙烤冷面摊",
    "category": "甜品",
    "description": "扬帆夜市周边摊位，主营烤冷面",
    "open_time": "17:00-22:30",
    "lng": 113.0417,
    "lat": 28.2073,
    "heat": 0.58,
    "status": "approved",
    "merchant_name": "merchant01",
    "image_url": "https://picsum.photos/seed/stall_1/480/320"
  },
  {
    "id": 2,
    "name": "扬帆夜宵炒粉摊",
    "category": "卤味",
    "description": "扬帆夜市周边摊位，主营炒粉",
    "open_time": "17:00-22:30",
    "lng": 113.0382,
    "lat": 28.2035,
    "heat": 0.87,
    "status": "approved",
    "merchant_name": "merchant02",
    "image_url": "https://picsum.photos/seed/stall_2/480/320"
  },
  {
    "id": 3,
    "name": "扬帆老长沙烤生蚝摊",
    "category": "烧烤",
    "description": "扬帆夜市周边摊位，主营烤生蚝",
    "open_time": "17:30-23:30",
    "lng": 113.0339,
    "lat": 28.2057,
    "heat": 0.59,
    "status": "approved",
    "merchant_name": "merchant03",
    "image_url": "https://picsum.photos/seed/stall_3/480/320"
  },
  {
    "id": 4,
    "name": "扬帆地道烤串摊",
    "category": "烧烤",
    "description": "扬帆夜市周边摊位，主营烤串",
    "open_time": "17:30-23:30",
    "lng": 113.0368,
    "lat": 28.2022,
    "heat": 0.69,
    "status": "approved",
    "merchant_name": "merchant04",
    "image_url": "https://picsum.photos/seed/stall_4/480/320"
  },
  {
    "id": 5,
    "name": "扬帆招牌烤串摊",
    "category": "小吃",
    "description": "扬帆夜市周边摊位，主营烤串",
    "open_time": "18:00-24:00",
    "lng": 113.0348,
    "lat": 28.2021,
    "heat": 0.89,
    "status": "approved",
    "merchant_name": "merchant05",
    "image_url": "https://picsum.photos/seed/stall_5/480/320"
  },
  {
    "id": 6,
    "name": "扬帆人气烤串摊",
    "category": "烧烤",
    "description": "扬帆夜市周边摊位，主营烤串",
    "open_time": "19:00-02:00",
    "lng": 113.0403,
    "lat": 28.204,
    "heat": 0.55,
    "status": "approved",
    "merchant_name": "merchant06",
    "image_url": "https://picsum.photos/seed/stall_6/480/320"
  },
  {
    "id": 7,
    "name": "扬帆现烤锅盔摊",
    "category": "烧烤",
    "description": "扬帆夜市周边摊位，主营锅盔",
    "open_time": "18:00-24:00",
    "lng": 113.036,
    "lat": 28.2086,
    "heat": 0.93,
    "status": "approved",
    "merchant_name": "merchant07",
    "image_url": "https://picsum.photos/seed/stall_7/480/320"
  },
  {
    "id": 8,
    "name": "扬帆现烤烤生蚝摊",
    "category": "烧烤",
    "description": "扬帆夜市周边摊位，主营烤生蚝",
    "open_time": "17:00-22:30",
    "lng": 113.0345,
    "lat": 28.2095,
    "heat": 0.74,
    "status": "approved",
    "merchant_name": "merchant08",
    "image_url": "https://picsum.photos/seed/stall_8/480/320"
  },
  {
    "id": 9,
    "name": "扬帆地道冰粉摊",
    "category": "小吃",
    "description": "扬帆夜市周边摊位，主营冰粉",
    "open_time": "18:00-24:00",
    "lng": 113.0389,
    "lat": 28.2022,
    "heat": 0.89,
    "status": "approved",
    "merchant_name": "merchant09",
    "image_url": "https://picsum.photos/seed/stall_9/480/320"
  },
  {
    "id": 10,
    "name": "扬帆夜宵炸鸡柳摊",
    "category": "卤味",
    "description": "扬帆夜市周边摊位，主营炸鸡柳",
    "open_time": "19:00-02:00",
    "lng": 113.042,
    "lat": 28.2043,
    "heat": 0.76,
    "status": "approved",
    "merchant_name": "merchant10",
    "image_url": "https://picsum.photos/seed/stall_10/480/320"
  },
  {
    "id": 11,
    "name": "扬帆特色锅盔摊",
    "category": "卤味",
    "description": "扬帆夜市周边摊位，主营锅盔",
    "open_time": "17:30-23:30",
    "lng": 113.0376,
    "lat": 28.2033,
    "heat": 0.57,
    "status": "approved",
    "merchant_name": "merchant11",
    "image_url": "https://picsum.photos/seed/stall_11/480/320"
  },
  {
    "id": 12,
    "name": "扬帆人气烤生蚝摊",
    "category": "甜品",
    "description": "扬帆夜市周边摊位，主营烤生蚝",
    "open_time": "19:00-02:00",
    "lng": 113.042,
    "lat": 28.2063,
    "heat": 0.95,
    "status": "approved",
    "merchant_name": "merchant12",
    "image_url": "https://picsum.photos/seed/stall_12/480/320"
  },
  {
    "id": 13,
    "name": "扬帆现烤柠檬茶摊",
    "category": "烧烤",
    "description": "扬帆夜市周边摊位，主营柠檬茶",
    "open_time": "17:30-23:30",
    "lng": 113.0381,
    "lat": 28.2066,
    "heat": 0.57,
    "status": "approved",
    "merchant_name": "merchant01",
    "image_url": "https://picsum.photos/seed/stall_13/480/320"
  },
  {
    "id": 14,
    "name": "扬帆夜宵烤冷面摊",
    "category": "饮品",
    "description": "扬帆夜市周边摊位，主营烤冷面",
    "open_time": "18:00-24:00",
    "lng": 113.0398,
    "lat": 28.206,
    "heat": 0.55,
    "status": "approved",
    "merchant_name": "merchant02",
    "image_url": "https://picsum.photos/seed/stall_14/480/320"
  },
  {
    "id": 15,
    "name": "扬帆夜宵糖油粑粑摊",
    "category": "小吃",
    "description": "扬帆夜市周边摊位，主营糖油粑粑",
    "open_time": "18:30-01:00",
    "lng": 113.0408,
    "lat": 28.2034,
    "heat": 0.92,
    "status": "approved",
    "merchant_name": "merchant03",
    "image_url": "https://picsum.photos/seed/stall_15/480/320"
  },
  {
    "id": 16,
    "name": "扬帆地道柠檬茶摊",
    "category": "卤味",
    "description": "扬帆夜市周边摊位，主营柠檬茶",
    "open_time": "18:30-01:00",
    "lng": 113.0379,
    "lat": 28.2083,
    "heat": 0.94,
    "status": "approved",
    "merchant_name": "merchant04",
    "image_url": "https://picsum.photos/seed/stall_16/480/320"
  },
  {
    "id": 17,
    "name": "扬帆老长沙烤冷面摊",
    "category": "甜品",
    "description": "扬帆夜市周边摊位，主营烤冷面",
    "open_time": "18:00-24:00",
    "lng": 113.0372,
    "lat": 28.2028,
    "heat": 0.63,
    "status": "approved",
    "merchant_name": "merchant05",
    "image_url": "https://picsum.photos/seed/stall_17/480/320"
  },
  {
    "id": 18,
    "name": "扬帆特色烤生蚝摊",
    "category": "卤味",
    "description": "扬帆夜市周边摊位，主营烤生蚝",
    "open_time": "18:00-24:00",
    "lng": 113.0408,
    "lat": 28.2073,
    "heat": 0.83,
    "status": "approved",
    "merchant_name": "merchant06",
    "image_url": "https://picsum.photos/seed/stall_18/480/320"
  },
  {
    "id": 19,
    "name": "扬帆老长沙冰粉摊",
    "category": "饮品",
    "description": "扬帆夜市周边摊位，主营冰粉",
    "open_time": "19:00-02:00",
    "lng": 113.0404,
    "lat": 28.2064,
    "heat": 0.76,
    "status": "approved",
    "merchant_name": "merchant07",
    "image_url": "https://picsum.photos/seed/stall_19/480/320"
  },
  {
    "id": 20,
    "name": "扬帆老长沙烤生蚝摊",
    "category": "甜品",
    "description": "扬帆夜市周边摊位，主营烤生蚝",
    "open_time": "19:00-02:00",
    "lng": 113.0379,
    "lat": 28.2059,
    "heat": 0.84,
    "status": "approved",
    "merchant_name": "merchant08",
    "image_url": "https://picsum.photos/seed/stall_20/480/320"
  },
  {
    "id": 21,
    "name": "扬帆手作卤味拼盘摊",
    "category": "小吃",
    "description": "扬帆夜市周边摊位，主营卤味拼盘",
    "open_time": "19:00-02:00",
    "lng": 113.0418,
    "lat": 28.2051,
    "heat": 0.81,
    "status": "approved",
    "merchant_name": "merchant09",
    "image_url": "https://picsum.photos/seed/stall_21/480/320"
  },
  {
    "id": 22,
    "name": "扬帆老长沙炸鸡柳摊",
    "category": "卤味",
    "description": "扬帆夜市周边摊位，主营炸鸡柳",
    "open_time": "17:30-23:30",
    "lng": 113.0411,
    "lat": 28.2099,
    "heat": 0.83,
    "status": "approved",
    "merchant_name": "merchant10",
    "image_url": "https://picsum.photos/seed/stall_22/480/320"
  },
  {
    "id": 23,
    "name": "扬帆招牌臭豆腐摊",
    "category": "甜品",
    "description": "扬帆夜市周边摊位，主营臭豆腐",
    "open_time": "18:30-01:00",
    "lng": 113.035,
    "lat": 28.204,
    "heat": 0.88,
    "status": "approved",
    "merchant_name": "merchant11",
    "image_url": "https://picsum.photos/seed/stall_23/480/320"
  },
  {
    "id": 24,
    "name": "扬帆招牌冰粉摊",
    "category": "卤味",
    "description": "扬帆夜市周边摊位，主营冰粉",
    "open_time": "18:30-01:00",
    "lng": 113.038,
    "lat": 28.2058,
    "heat": 0.75,
    "status": "approved",
    "merchant_name": "merchant12",
    "image_url": "https://picsum.photos/seed/stall_24/480/320"
  },
  {
    "id": 25,
    "name": "扬帆招牌锅盔摊",
    "category": "饮品",
    "description": "扬帆夜市周边摊位，主营锅盔",
    "open_time": "19:00-02:00",
    "lng": 113.0401,
    "lat": 28.2022,
    "heat": 0.55,
    "status": "approved",
    "merchant_name": "merchant01",
    "image_url": "https://picsum.photos/seed/stall_25/480/320"
  },
  {
    "id": 26,
    "name": "扬帆现烤炒粉摊",
    "category": "甜品",
    "description": "扬帆夜市周边摊位，主营炒粉",
    "open_time": "17:30-23:30",
    "lng": 113.0334,
    "lat": 28.2092,
    "heat": 0.88,
    "status": "approved",
    "merchant_name": "merchant02",
    "image_url": "https://picsum.photos/seed/stall_26/480/320"
  },
  {
    "id": 27,
    "name": "扬帆人气烤冷面摊",
    "category": "甜品",
    "description": "扬帆夜市周边摊位，主营烤冷面",
    "open_time": "18:30-01:00",
    "lng": 113.0377,
    "lat": 28.2096,
    "heat": 0.66,
    "status": "approved",
    "merchant_name": "merchant03",
    "image_url": "https://picsum.photos/seed/stall_27/480/320"
  },
  {
    "id": 28,
    "name": "扬帆手作冰粉摊",
    "category": "烧烤",
    "description": "扬帆夜市周边摊位，主营冰粉",
    "open_time": "18:30-01:00",
    "lng": 113.0421,
    "lat": 28.202,
    "heat": 0.92,
    "status": "approved",
    "merchant_name": "merchant04",
    "image_url": "https://picsum.photos/seed/stall_28/480/320"
  },
  {
    "id": 29,
    "name": "扬帆风味锅盔摊",
    "category": "小吃",
    "description": "扬帆夜市周边摊位，主营锅盔",
    "open_time": "18:30-01:00",
    "lng": 113.0342,
    "lat": 28.2097,
    "heat": 0.55,
    "status": "approved",
    "merchant_name": "merchant05",
    "image_url": "https://picsum.photos/seed/stall_29/480/320"
  },
  {
    "id": 30,
    "name": "扬帆老长沙冰粉摊",
    "category": "烧烤",
    "description": "扬帆夜市周边摊位，主营冰粉",
    "open_time": "18:00-24:00",
    "lng": 113.0364,
    "lat": 28.2043,
    "heat": 0.74,
    "status": "approved",
    "merchant_name": "merchant06",
    "image_url": "https://picsum.photos/seed/stall_30/480/320"
  },
  {
    "id": 31,
    "name": "扬帆经典烤串摊",
    "category": "甜品",
    "description": "扬帆夜市周边摊位，主营烤串",
    "open_time": "18:00-24:00",
    "lng": 113.0347,
    "lat": 28.2102,
    "heat": 0.72,
    "status": "approved",
    "merchant_name": "merchant07",
    "image_url": "https://picsum.photos/seed/stall_31/480/320"
  },
  {
    "id": 32,
    "name": "扬帆经典柠檬茶摊",
    "category": "烧烤",
    "description": "扬帆夜市周边摊位，主营柠檬茶",
    "open_time": "17:00-22:30",
    "lng": 113.0404,
    "lat": 28.21,
    "heat": 0.7,
    "status": "approved",
    "merchant_name": "merchant08",
    "image_url": "https://picsum.photos/seed/stall_32/480/320"
  },
  {
    "id": 33,
    "name": "扬帆地道烤串摊",
    "category": "甜品",
    "description": "扬帆夜市周边摊位，主营烤串",
    "open_time": "17:00-22:30",
    "lng": 113.037,
    "lat": 28.2042,
    "heat": 0.7,
    "status": "approved",
    "merchant_name": "merchant09",
    "image_url": "https://picsum.photos/seed/stall_33/480/320"
  },
  {
    "id": 34,
    "name": "扬帆地道烤冷面摊",
    "category": "小吃",
    "description": "扬帆夜市周边摊位，主营烤冷面",
    "open_time": "18:30-01:00",
    "lng": 113.0418,
    "lat": 28.2015,
    "heat": 0.78,
    "status": "approved",
    "merchant_name": "merchant10",
    "image_url": "https://picsum.photos/seed/stall_34/480/320"
  },
  {
    "id": 35,
    "name": "扬帆现烤炸鸡柳摊",
    "category": "烧烤",
    "description": "扬帆夜市周边摊位，主营炸鸡柳",
    "open_time": "19:00-02:00",
    "lng": 113.0411,
    "lat": 28.2016,
    "heat": 0.71,
    "status": "approved",
    "merchant_name": "merchant11",
    "image_url": "https://picsum.photos/seed/stall_35/480/320"
  },
  {
    "id": 36,
    "name": "扬帆地道锅盔摊",
    "category": "小吃",
    "description": "扬帆夜市周边摊位，主营锅盔",
    "open_time": "17:00-22:30",
    "lng": 113.0382,
    "lat": 28.2026,
    "heat": 0.71,
    "status": "approved",
    "merchant_name": "merchant12",
    "image_url": "https://picsum.photos/seed/stall_36/480/320"
  },
  {
    "id": 37,
    "name": "扬帆手作烤冷面摊",
    "category": "烧烤",
    "description": "扬帆夜市周边摊位，主营烤冷面",
    "open_time": "18:30-01:00",
    "lng": 113.0415,
    "lat": 28.2052,
    "heat": 0.55,
    "status": "approved",
    "merchant_name": "merchant01",
    "image_url": "https://picsum.photos/seed/stall_37/480/320"
  },
  {
    "id": 38,
    "name": "扬帆人气炸鸡柳摊",
    "category": "小吃",
    "description": "扬帆夜市周边摊位，主营炸鸡柳",
    "open_time": "17:00-22:30",
    "lng": 113.0412,
    "lat": 28.2069,
    "heat": 0.76,
    "status": "approved",
    "merchant_name": "merchant02",
    "image_url": "https://picsum.photos/seed/stall_38/480/320"
  },
  {
    "id": 39,
    "name": "扬帆现烤炸鸡柳摊",
    "category": "饮品",
    "description": "扬帆夜市周边摊位，主营炸鸡柳",
    "open_time": "18:00-24:00",
    "lng": 113.0384,
    "lat": 28.2056,
    "heat": 0.9,
    "status": "approved",
    "merchant_name": "merchant03",
    "image_url": "https://picsum.photos/seed/stall_39/480/320"
  },
  {
    "id": 40,
    "name": "扬帆现烤烤串摊",
    "category": "烧烤",
    "description": "扬帆夜市周边摊位，主营烤串",
    "open_time": "17:00-22:30",
    "lng": 113.0345,
    "lat": 28.2047,
    "heat": 0.73,
    "status": "approved",
    "merchant_name": "merchant04",
    "image_url": "https://picsum.photos/seed/stall_40/480/320"
  },
  {
    "id": 41,
    "name": "德思勤经典烤生蚝摊",
    "category": "烧烤",
    "description": "德思勤夜市周边摊位，主营烤生蚝",
    "open_time": "17:30-23:30",
    "lng": 113.004,
    "lat": 28.1024,
    "heat": 0.85,
    "status": "approved",
    "merchant_name": "merchant05",
    "image_url": "https://picsum.photos/seed/stall_41/480/320"
  },
  {
    "id": 42,
    "name": "德思勤经典冰粉摊",
    "category": "主食",
    "description": "德思勤夜市周边摊位，主营冰粉",
    "open_time": "17:30-23:30",
    "lng": 112.9974,
    "lat": 28.1048,
    "heat": 0.75,
    "status": "approved",
    "merchant_name": "merchant06",
    "image_url": "https://picsum.photos/seed/stall_42/480/320"
  },
  {
    "id": 43,
    "name": "德思勤手作臭豆腐摊",
    "category": "炸物",
    "description": "德思勤夜市周边摊位，主营臭豆腐",
    "open_time": "18:00-24:00",
    "lng": 113,
    "lat": 28.0977,
    "heat": 0.83,
    "status": "approved",
    "merchant_name": "merchant07",
    "image_url": "https://picsum.photos/seed/stall_43/480/320"
  },
  {
    "id": 44,
    "name": "德思勤招牌柠檬茶摊",
    "category": "炸物",
    "description": "德思勤夜市周边摊位，主营柠檬茶",
    "open_time": "18:30-01:00",
    "lng": 113.0009,
    "lat": 28.097,
    "heat": 0.96,
    "status": "approved",
    "merchant_name": "merchant08",
    "image_url": "https://picsum.photos/seed/stall_44/480/320"
  },
  {
    "id": 45,
    "name": "德思勤人气烤冷面摊",
    "category": "主食",
    "description": "德思勤夜市周边摊位，主营烤冷面",
    "open_time": "18:30-01:00",
    "lng": 113.0063,
    "lat": 28.1056,
    "heat": 0.58,
    "status": "approved",
    "merchant_name": "merchant09",
    "image_url": "https://picsum.photos/seed/stall_45/480/320"
  },
  {
    "id": 46,
    "name": "德思勤招牌臭豆腐摊",
    "category": "烧烤",
    "description": "德思勤夜市周边摊位，主营臭豆腐",
    "open_time": "19:00-02:00",
    "lng": 113.0033,
    "lat": 28.1013,
    "heat": 0.68,
    "status": "approved",
    "merchant_name": "merchant10",
    "image_url": "https://picsum.photos/seed/stall_46/480/320"
  },
  {
    "id": 47,
    "name": "德思勤特色糖油粑粑摊",
    "category": "主食",
    "description": "德思勤夜市周边摊位，主营糖油粑粑",
    "open_time": "17:30-23:30",
    "lng": 113.0048,
    "lat": 28.104,
    "heat": 0.57,
    "status": "approved",
    "merchant_name": "merchant11",
    "image_url": "https://picsum.photos/seed/stall_47/480/320"
  },
  {
    "id": 48,
    "name": "德思勤人气糖油粑粑摊",
    "category": "小吃",
    "description": "德思勤夜市周边摊位，主营糖油粑粑",
    "open_time": "17:00-22:30",
    "lng": 112.9999,
    "lat": 28.0998,
    "heat": 0.6,
    "status": "approved",
    "merchant_name": "merchant12",
    "image_url": "https://picsum.photos/seed/stall_48/480/320"
  },
  {
    "id": 49,
    "name": "德思勤夜宵糖油粑粑摊",
    "category": "主食",
    "description": "德思勤夜市周边摊位，主营糖油粑粑",
    "open_time": "17:00-22:30",
    "lng": 113,
    "lat": 28.1019,
    "heat": 0.73,
    "status": "approved",
    "merchant_name": "merchant01",
    "image_url": "https://picsum.photos/seed/stall_49/480/320"
  },
  {
    "id": 50,
    "name": "德思勤手作烤生蚝摊",
    "category": "主食",
    "description": "德思勤夜市周边摊位，主营烤生蚝",
    "open_time": "19:00-02:00",
    "lng": 113.0037,
    "lat": 28.104,
    "heat": 0.83,
    "status": "approved",
    "merchant_name": "merchant02",
    "image_url": "https://picsum.photos/seed/stall_50/480/320"
  },
  {
    "id": 51,
    "name": "德思勤经典锅盔摊",
    "category": "炸物",
    "description": "德思勤夜市周边摊位，主营锅盔",
    "open_time": "18:00-24:00",
    "lng": 113.0056,
    "lat": 28.0981,
    "heat": 0.89,
    "status": "approved",
    "merchant_name": "merchant03",
    "image_url": "https://picsum.photos/seed/stall_51/480/320"
  },
  {
    "id": 52,
    "name": "德思勤招牌口味虾摊",
    "category": "烧烤",
    "description": "德思勤夜市周边摊位，主营口味虾",
    "open_time": "19:00-02:00",
    "lng": 113.0041,
    "lat": 28.1039,
    "heat": 0.57,
    "status": "approved",
    "merchant_name": "merchant04",
    "image_url": "https://picsum.photos/seed/stall_52/480/320"
  },
  {
    "id": 53,
    "name": "德思勤人气卤味拼盘摊",
    "category": "主食",
    "description": "德思勤夜市周边摊位，主营卤味拼盘",
    "open_time": "18:00-24:00",
    "lng": 113.003,
    "lat": 28.1046,
    "heat": 0.69,
    "status": "approved",
    "merchant_name": "merchant05",
    "image_url": "https://picsum.photos/seed/stall_53/480/320"
  },
  {
    "id": 54,
    "name": "德思勤风味锅盔摊",
    "category": "烧烤",
    "description": "德思勤夜市周边摊位，主营锅盔",
    "open_time": "18:00-24:00",
    "lng": 113.0019,
    "lat": 28.1032,
    "heat": 0.77,
    "status": "approved",
    "merchant_name": "merchant06",
    "image_url": "https://picsum.photos/seed/stall_54/480/320"
  },
  {
    "id": 55,
    "name": "德思勤地道炒粉摊",
    "category": "烧烤",
    "description": "德思勤夜市周边摊位，主营炒粉",
    "open_time": "17:30-23:30",
    "lng": 113.0012,
    "lat": 28.0979,
    "heat": 0.78,
    "status": "approved",
    "merchant_name": "merchant07",
    "image_url": "https://picsum.photos/seed/stall_55/480/320"
  },
  {
    "id": 56,
    "name": "德思勤夜宵烤冷面摊",
    "category": "小吃",
    "description": "德思勤夜市周边摊位，主营烤冷面",
    "open_time": "19:00-02:00",
    "lng": 112.9977,
    "lat": 28.0979,
    "heat": 0.86,
    "status": "approved",
    "merchant_name": "merchant08",
    "image_url": "https://picsum.photos/seed/stall_56/480/320"
  },
  {
    "id": 57,
    "name": "德思勤手作炸鸡柳摊",
    "category": "饮品",
    "description": "德思勤夜市周边摊位，主营炸鸡柳",
    "open_time": "17:30-23:30",
    "lng": 112.9981,
    "lat": 28.1044,
    "heat": 0.62,
    "status": "approved",
    "merchant_name": "merchant09",
    "image_url": "https://picsum.photos/seed/stall_57/480/320"
  },
  {
    "id": 58,
    "name": "德思勤人气口味虾摊",
    "category": "小吃",
    "description": "德思勤夜市周边摊位，主营口味虾",
    "open_time": "17:00-22:30",
    "lng": 112.9993,
    "lat": 28.0969,
    "heat": 0.62,
    "status": "approved",
    "merchant_name": "merchant10",
    "image_url": "https://picsum.photos/seed/stall_58/480/320"
  },
  {
    "id": 59,
    "name": "德思勤地道炒粉摊",
    "category": "炸物",
    "description": "德思勤夜市周边摊位，主营炒粉",
    "open_time": "17:30-23:30",
    "lng": 113.0011,
    "lat": 28.1057,
    "heat": 0.95,
    "status": "approved",
    "merchant_name": "merchant11",
    "image_url": "https://picsum.photos/seed/stall_59/480/320"
  },
  {
    "id": 60,
    "name": "德思勤人气柠檬茶摊",
    "category": "主食",
    "description": "德思勤夜市周边摊位，主营柠檬茶",
    "open_time": "17:30-23:30",
    "lng": 113.0012,
    "lat": 28.1036,
    "heat": 0.93,
    "status": "approved",
    "merchant_name": "merchant12",
    "image_url": "https://picsum.photos/seed/stall_60/480/320"
  },
  {
    "id": 61,
    "name": "德思勤经典烤串摊",
    "category": "小吃",
    "description": "德思勤夜市周边摊位，主营烤串",
    "open_time": "17:30-23:30",
    "lng": 112.9977,
    "lat": 28.105,
    "heat": 0.76,
    "status": "approved",
    "merchant_name": "merchant01",
    "image_url": "https://picsum.photos/seed/stall_61/480/320"
  },
  {
    "id": 62,
    "name": "德思勤手作卤味拼盘摊",
    "category": "主食",
    "description": "德思勤夜市周边摊位，主营卤味拼盘",
    "open_time": "18:30-01:00",
    "lng": 113.0022,
    "lat": 28.1038,
    "heat": 0.75,
    "status": "approved",
    "merchant_name": "merchant02",
    "image_url": "https://picsum.photos/seed/stall_62/480/320"
  },
  {
    "id": 63,
    "name": "德思勤手作卤味拼盘摊",
    "category": "主食",
    "description": "德思勤夜市周边摊位，主营卤味拼盘",
    "open_time": "17:00-22:30",
    "lng": 113.0019,
    "lat": 28.1017,
    "heat": 0.8,
    "status": "approved",
    "merchant_name": "merchant03",
    "image_url": "https://picsum.photos/seed/stall_63/480/320"
  },
  {
    "id": 64,
    "name": "德思勤招牌烤生蚝摊",
    "category": "烧烤",
    "description": "德思勤夜市周边摊位，主营烤生蚝",
    "open_time": "17:00-22:30",
    "lng": 113.0039,
    "lat": 28.0981,
    "heat": 0.63,
    "status": "approved",
    "merchant_name": "merchant04",
    "image_url": "https://picsum.photos/seed/stall_64/480/320"
  },
  {
    "id": 65,
    "name": "德思勤老长沙烤冷面摊",
    "category": "小吃",
    "description": "德思勤夜市周边摊位，主营烤冷面",
    "open_time": "19:00-02:00",
    "lng": 113.0043,
    "lat": 28.1,
    "heat": 0.74,
    "status": "approved",
    "merchant_name": "merchant05",
    "image_url": "https://picsum.photos/seed/stall_65/480/320"
  },
  {
    "id": 66,
    "name": "德思勤老长沙卤味拼盘摊",
    "category": "饮品",
    "description": "德思勤夜市周边摊位，主营卤味拼盘",
    "open_time": "18:00-24:00",
    "lng": 112.9989,
    "lat": 28.1058,
    "heat": 0.8,
    "status": "approved",
    "merchant_name": "merchant06",
    "image_url": "https://picsum.photos/seed/stall_66/480/320"
  },
  {
    "id": 67,
    "name": "德思勤手作冰粉摊",
    "category": "饮品",
    "description": "德思勤夜市周边摊位，主营冰粉",
    "open_time": "18:30-01:00",
    "lng": 112.9974,
    "lat": 28.1001,
    "heat": 0.68,
    "status": "approved",
    "merchant_name": "merchant07",
    "image_url": "https://picsum.photos/seed/stall_67/480/320"
  },
  {
    "id": 68,
    "name": "德思勤招牌锅盔摊",
    "category": "小吃",
    "description": "德思勤夜市周边摊位，主营锅盔",
    "open_time": "17:00-22:30",
    "lng": 113.0017,
    "lat": 28.1009,
    "heat": 0.87,
    "status": "approved",
    "merchant_name": "merchant08",
    "image_url": "https://picsum.photos/seed/stall_68/480/320"
  },
  {
    "id": 69,
    "name": "德思勤老长沙卤味拼盘摊",
    "category": "小吃",
    "description": "德思勤夜市周边摊位，主营卤味拼盘",
    "open_time": "18:30-01:00",
    "lng": 113.0056,
    "lat": 28.0983,
    "heat": 0.74,
    "status": "approved",
    "merchant_name": "merchant09",
    "image_url": "https://picsum.photos/seed/stall_69/480/320"
  },
  {
    "id": 70,
    "name": "德思勤人气卤味拼盘摊",
    "category": "烧烤",
    "description": "德思勤夜市周边摊位，主营卤味拼盘",
    "open_time": "18:00-24:00",
    "lng": 112.9996,
    "lat": 28.1032,
    "heat": 0.62,
    "status": "approved",
    "merchant_name": "merchant10",
    "image_url": "https://picsum.photos/seed/stall_70/480/320"
  },
  {
    "id": 71,
    "name": "德思勤招牌炒粉摊",
    "category": "炸物",
    "description": "德思勤夜市周边摊位，主营炒粉",
    "open_time": "18:30-01:00",
    "lng": 112.9985,
    "lat": 28.0973,
    "heat": 0.94,
    "status": "approved",
    "merchant_name": "merchant11",
    "image_url": "https://picsum.photos/seed/stall_71/480/320"
  },
  {
    "id": 72,
    "name": "德思勤人气炒粉摊",
    "category": "饮品",
    "description": "德思勤夜市周边摊位，主营炒粉",
    "open_time": "17:30-23:30",
    "lng": 113.0013,
    "lat": 28.1001,
    "heat": 0.72,
    "status": "approved",
    "merchant_name": "merchant12",
    "image_url": "https://picsum.photos/seed/stall_72/480/320"
  },
  {
    "id": 73,
    "name": "德思勤手作臭豆腐摊",
    "category": "小吃",
    "description": "德思勤夜市周边摊位，主营臭豆腐",
    "open_time": "19:00-02:00",
    "lng": 113.0028,
    "lat": 28.0981,
    "heat": 0.71,
    "status": "approved",
    "merchant_name": "merchant01",
    "image_url": "https://picsum.photos/seed/stall_73/480/320"
  },
  {
    "id": 74,
    "name": "德思勤老长沙柠檬茶摊",
    "category": "炸物",
    "description": "德思勤夜市周边摊位，主营柠檬茶",
    "open_time": "19:00-02:00",
    "lng": 112.9983,
    "lat": 28.1034,
    "heat": 0.71,
    "status": "approved",
    "merchant_name": "merchant02",
    "image_url": "https://picsum.photos/seed/stall_74/480/320"
  },
  {
    "id": 75,
    "name": "德思勤人气口味虾摊",
    "category": "烧烤",
    "description": "德思勤夜市周边摊位，主营口味虾",
    "open_time": "18:00-24:00",
    "lng": 112.9993,
    "lat": 28.1051,
    "heat": 0.6,
    "status": "approved",
    "merchant_name": "merchant03",
    "image_url": "https://picsum.photos/seed/stall_75/480/320"
  },
  {
    "id": 76,
    "name": "德思勤风味口味虾摊",
    "category": "烧烤",
    "description": "德思勤夜市周边摊位，主营口味虾",
    "open_time": "18:30-01:00",
    "lng": 113.0024,
    "lat": 28.1003,
    "heat": 0.76,
    "status": "approved",
    "merchant_name": "merchant04",
    "image_url": "https://picsum.photos/seed/stall_76/480/320"
  },
  {
    "id": 77,
    "name": "德思勤风味烤生蚝摊",
    "category": "主食",
    "description": "德思勤夜市周边摊位，主营烤生蚝",
    "open_time": "19:00-02:00",
    "lng": 112.9979,
    "lat": 28.1007,
    "heat": 0.88,
    "status": "approved",
    "merchant_name": "merchant05",
    "image_url": "https://picsum.photos/seed/stall_77/480/320"
  },
  {
    "id": 78,
    "name": "德思勤手作锅盔摊",
    "category": "烧烤",
    "description": "德思勤夜市周边摊位，主营锅盔",
    "open_time": "19:00-02:00",
    "lng": 113.0022,
    "lat": 28.0998,
    "heat": 0.7,
    "status": "approved",
    "merchant_name": "merchant06",
    "image_url": "https://picsum.photos/seed/stall_78/480/320"
  },
  {
    "id": 79,
    "name": "德思勤人气口味虾摊",
    "category": "炸物",
    "description": "德思勤夜市周边摊位，主营口味虾",
    "open_time": "18:00-24:00",
    "lng": 113.0049,
    "lat": 28.1031,
    "heat": 0.71,
    "status": "approved",
    "merchant_name": "merchant07",
    "image_url": "https://picsum.photos/seed/stall_79/480/320"
  },
  {
    "id": 80,
    "name": "德思勤手作烤冷面摊",
    "category": "饮品",
    "description": "德思勤夜市周边摊位，主营烤冷面",
    "open_time": "19:00-02:00",
    "lng": 113.0033,
    "lat": 28.102,
    "heat": 0.7,
    "status": "approved",
    "merchant_name": "merchant08",
    "image_url": "https://picsum.photos/seed/stall_80/480/320"
  },
  {
    "id": 81,
    "name": "四方坪夜宵炸鸡柳摊",
    "category": "烧烤",
    "description": "四方坪夜市周边摊位，主营炸鸡柳",
    "open_time": "18:30-01:00",
    "lng": 113.0009,
    "lat": 28.248,
    "heat": 0.82,
    "status": "approved",
    "merchant_name": "merchant09",
    "image_url": "https://picsum.photos/seed/stall_81/480/320"
  },
  {
    "id": 82,
    "name": "四方坪老长沙锅盔摊",
    "category": "烧烤",
    "description": "四方坪夜市周边摊位，主营锅盔",
    "open_time": "18:00-24:00",
    "lng": 112.9936,
    "lat": 28.2494,
    "heat": 0.72,
    "status": "approved",
    "merchant_name": "merchant10",
    "image_url": "https://picsum.photos/seed/stall_82/480/320"
  },
  {
    "id": 83,
    "name": "四方坪夜宵卤味拼盘摊",
    "category": "小吃",
    "description": "四方坪夜市周边摊位，主营卤味拼盘",
    "open_time": "18:30-01:00",
    "lng": 112.9978,
    "lat": 28.2514,
    "heat": 0.6,
    "status": "approved",
    "merchant_name": "merchant11",
    "image_url": "https://picsum.photos/seed/stall_83/480/320"
  },
  {
    "id": 84,
    "name": "四方坪手作烤冷面摊",
    "category": "湘味",
    "description": "四方坪夜市周边摊位，主营烤冷面",
    "open_time": "19:00-02:00",
    "lng": 112.9997,
    "lat": 28.2484,
    "heat": 0.71,
    "status": "approved",
    "merchant_name": "merchant12",
    "image_url": "https://picsum.photos/seed/stall_84/480/320"
  },
  {
    "id": 85,
    "name": "四方坪老长沙烤生蚝摊",
    "category": "甜品",
    "description": "四方坪夜市周边摊位，主营烤生蚝",
    "open_time": "19:00-02:00",
    "lng": 112.9984,
    "lat": 28.2478,
    "heat": 0.77,
    "status": "approved",
    "merchant_name": "merchant01",
    "image_url": "https://picsum.photos/seed/stall_85/480/320"
  },
  {
    "id": 86,
    "name": "四方坪招牌烤串摊",
    "category": "小吃",
    "description": "四方坪夜市周边摊位，主营烤串",
    "open_time": "17:30-23:30",
    "lng": 112.9985,
    "lat": 28.2463,
    "heat": 0.78,
    "status": "approved",
    "merchant_name": "merchant02",
    "image_url": "https://picsum.photos/seed/stall_86/480/320"
  },
  {
    "id": 87,
    "name": "四方坪夜宵炸鸡柳摊",
    "category": "烧烤",
    "description": "四方坪夜市周边摊位，主营炸鸡柳",
    "open_time": "18:30-01:00",
    "lng": 112.9964,
    "lat": 28.2518,
    "heat": 0.56,
    "status": "approved",
    "merchant_name": "merchant03",
    "image_url": "https://picsum.photos/seed/stall_87/480/320"
  },
  {
    "id": 88,
    "name": "四方坪手作卤味拼盘摊",
    "category": "小吃",
    "description": "四方坪夜市周边摊位，主营卤味拼盘",
    "open_time": "18:30-01:00",
    "lng": 112.9982,
    "lat": 28.2472,
    "heat": 0.95,
    "status": "approved",
    "merchant_name": "merchant04",
    "image_url": "https://picsum.photos/seed/stall_88/480/320"
  },
  {
    "id": 89,
    "name": "四方坪老长沙口味虾摊",
    "category": "饮品",
    "description": "四方坪夜市周边摊位，主营口味虾",
    "open_time": "17:30-23:30",
    "lng": 113.0002,
    "lat": 28.2438,
    "heat": 0.66,
    "status": "approved",
    "merchant_name": "merchant05",
    "image_url": "https://picsum.photos/seed/stall_89/480/320"
  },
  {
    "id": 90,
    "name": "四方坪风味臭豆腐摊",
    "category": "饮品",
    "description": "四方坪夜市周边摊位，主营臭豆腐",
    "open_time": "19:00-02:00",
    "lng": 112.9942,
    "lat": 28.25,
    "heat": 0.93,
    "status": "approved",
    "merchant_name": "merchant06",
    "image_url": "https://picsum.photos/seed/stall_90/480/320"
  },
  {
    "id": 91,
    "name": "四方坪经典冰粉摊",
    "category": "烧烤",
    "description": "四方坪夜市周边摊位，主营冰粉",
    "open_time": "18:30-01:00",
    "lng": 112.9987,
    "lat": 28.2501,
    "heat": 0.92,
    "status": "approved",
    "merchant_name": "merchant07",
    "image_url": "https://picsum.photos/seed/stall_91/480/320"
  },
  {
    "id": 92,
    "name": "四方坪风味炸鸡柳摊",
    "category": "小吃",
    "description": "四方坪夜市周边摊位，主营炸鸡柳",
    "open_time": "19:00-02:00",
    "lng": 112.9968,
    "lat": 28.2518,
    "heat": 0.75,
    "status": "approved",
    "merchant_name": "merchant08",
    "image_url": "https://picsum.photos/seed/stall_92/480/320"
  },
  {
    "id": 93,
    "name": "四方坪人气臭豆腐摊",
    "category": "饮品",
    "description": "四方坪夜市周边摊位，主营臭豆腐",
    "open_time": "17:00-22:30",
    "lng": 112.993,
    "lat": 28.2515,
    "heat": 0.88,
    "status": "approved",
    "merchant_name": "merchant09",
    "image_url": "https://picsum.photos/seed/stall_93/480/320"
  },
  {
    "id": 94,
    "name": "四方坪现烤锅盔摊",
    "category": "小吃",
    "description": "四方坪夜市周边摊位，主营锅盔",
    "open_time": "18:30-01:00",
    "lng": 112.9979,
    "lat": 28.2437,
    "heat": 0.63,
    "status": "approved",
    "merchant_name": "merchant10",
    "image_url": "https://picsum.photos/seed/stall_94/480/320"
  },
  {
    "id": 95,
    "name": "四方坪夜宵炸鸡柳摊",
    "category": "小吃",
    "description": "四方坪夜市周边摊位，主营炸鸡柳",
    "open_time": "19:00-02:00",
    "lng": 112.9942,
    "lat": 28.2479,
    "heat": 0.59,
    "status": "approved",
    "merchant_name": "merchant11",
    "image_url": "https://picsum.photos/seed/stall_95/480/320"
  },
  {
    "id": 96,
    "name": "四方坪经典炒粉摊",
    "category": "饮品",
    "description": "四方坪夜市周边摊位，主营炒粉",
    "open_time": "18:00-24:00",
    "lng": 112.9957,
    "lat": 28.2453,
    "heat": 0.96,
    "status": "approved",
    "merchant_name": "merchant12",
    "image_url": "https://picsum.photos/seed/stall_96/480/320"
  },
  {
    "id": 97,
    "name": "四方坪地道柠檬茶摊",
    "category": "甜品",
    "description": "四方坪夜市周边摊位，主营柠檬茶",
    "open_time": "17:00-22:30",
    "lng": 112.9999,
    "lat": 28.2484,
    "heat": 0.75,
    "status": "approved",
    "merchant_name": "merchant01",
    "image_url": "https://picsum.photos/seed/stall_97/480/320"
  },
  {
    "id": 98,
    "name": "四方坪老长沙口味虾摊",
    "category": "饮品",
    "description": "四方坪夜市周边摊位，主营口味虾",
    "open_time": "17:30-23:30",
    "lng": 112.9933,
    "lat": 28.2458,
    "heat": 0.86,
    "status": "approved",
    "merchant_name": "merchant02",
    "image_url": "https://picsum.photos/seed/stall_98/480/320"
  },
  {
    "id": 99,
    "name": "四方坪招牌臭豆腐摊",
    "category": "甜品",
    "description": "四方坪夜市周边摊位，主营臭豆腐",
    "open_time": "17:30-23:30",
    "lng": 112.9974,
    "lat": 28.2457,
    "heat": 0.65,
    "status": "approved",
    "merchant_name": "merchant03",
    "image_url": "https://picsum.photos/seed/stall_99/480/320"
  },
  {
    "id": 100,
    "name": "四方坪现烤口味虾摊",
    "category": "小吃",
    "description": "四方坪夜市周边摊位，主营口味虾",
    "open_time": "17:30-23:30",
    "lng": 113.0017,
    "lat": 28.2485,
    "heat": 0.92,
    "status": "approved",
    "merchant_name": "merchant04",
    "image_url": "https://picsum.photos/seed/stall_100/480/320"
  },
  {
    "id": 101,
    "name": "四方坪经典柠檬茶摊",
    "category": "甜品",
    "description": "四方坪夜市周边摊位，主营柠檬茶",
    "open_time": "18:00-24:00",
    "lng": 112.9932,
    "lat": 28.2435,
    "heat": 0.94,
    "status": "approved",
    "merchant_name": "merchant05",
    "image_url": "https://picsum.photos/seed/stall_101/480/320"
  },
  {
    "id": 102,
    "name": "四方坪现烤烤串摊",
    "category": "烧烤",
    "description": "四方坪夜市周边摊位，主营烤串",
    "open_time": "17:30-23:30",
    "lng": 113.0001,
    "lat": 28.2516,
    "heat": 0.92,
    "status": "approved",
    "merchant_name": "merchant06",
    "image_url": "https://picsum.photos/seed/stall_102/480/320"
  },
  {
    "id": 103,
    "name": "四方坪经典柠檬茶摊",
    "category": "湘味",
    "description": "四方坪夜市周边摊位，主营柠檬茶",
    "open_time": "17:00-22:30",
    "lng": 112.9999,
    "lat": 28.2448,
    "heat": 0.95,
    "status": "approved",
    "merchant_name": "merchant07",
    "image_url": "https://picsum.photos/seed/stall_103/480/320"
  },
  {
    "id": 104,
    "name": "四方坪经典炒粉摊",
    "category": "小吃",
    "description": "四方坪夜市周边摊位，主营炒粉",
    "open_time": "17:00-22:30",
    "lng": 112.9979,
    "lat": 28.2486,
    "heat": 0.62,
    "status": "approved",
    "merchant_name": "merchant08",
    "image_url": "https://picsum.photos/seed/stall_104/480/320"
  },
  {
    "id": 105,
    "name": "四方坪地道口味虾摊",
    "category": "饮品",
    "description": "四方坪夜市周边摊位，主营口味虾",
    "open_time": "17:30-23:30",
    "lng": 112.9929,
    "lat": 28.2509,
    "heat": 0.76,
    "status": "approved",
    "merchant_name": "merchant09",
    "image_url": "https://picsum.photos/seed/stall_105/480/320"
  },
  {
    "id": 106,
    "name": "四方坪人气烤冷面摊",
    "category": "湘味",
    "description": "四方坪夜市周边摊位，主营烤冷面",
    "open_time": "18:00-24:00",
    "lng": 112.9958,
    "lat": 28.2503,
    "heat": 0.57,
    "status": "approved",
    "merchant_name": "merchant10",
    "image_url": "https://picsum.photos/seed/stall_106/480/320"
  },
  {
    "id": 107,
    "name": "四方坪特色卤味拼盘摊",
    "category": "烧烤",
    "description": "四方坪夜市周边摊位，主营卤味拼盘",
    "open_time": "17:00-22:30",
    "lng": 112.9941,
    "lat": 28.2517,
    "heat": 0.81,
    "status": "approved",
    "merchant_name": "merchant11",
    "image_url": "https://picsum.photos/seed/stall_107/480/320"
  },
  {
    "id": 108,
    "name": "四方坪经典烤冷面摊",
    "category": "湘味",
    "description": "四方坪夜市周边摊位，主营烤冷面",
    "open_time": "17:30-23:30",
    "lng": 112.9944,
    "lat": 28.25,
    "heat": 0.94,
    "status": "approved",
    "merchant_name": "merchant12",
    "image_url": "https://picsum.photos/seed/stall_108/480/320"
  },
  {
    "id": 109,
    "name": "四方坪老长沙糖油粑粑摊",
    "category": "烧烤",
    "description": "四方坪夜市周边摊位，主营糖油粑粑",
    "open_time": "17:30-23:30",
    "lng": 112.9976,
    "lat": 28.2474,
    "heat": 0.96,
    "status": "approved",
    "merchant_name": "merchant01",
    "image_url": "https://picsum.photos/seed/stall_109/480/320"
  },
  {
    "id": 110,
    "name": "四方坪特色冰粉摊",
    "category": "湘味",
    "description": "四方坪夜市周边摊位，主营冰粉",
    "open_time": "19:00-02:00",
    "lng": 113.0017,
    "lat": 28.245,
    "heat": 0.61,
    "status": "approved",
    "merchant_name": "merchant02",
    "image_url": "https://picsum.photos/seed/stall_110/480/320"
  },
  {
    "id": 111,
    "name": "四方坪夜宵炸鸡柳摊",
    "category": "甜品",
    "description": "四方坪夜市周边摊位，主营炸鸡柳",
    "open_time": "17:30-23:30",
    "lng": 113.0001,
    "lat": 28.2448,
    "heat": 0.72,
    "status": "approved",
    "merchant_name": "merchant03",
    "image_url": "https://picsum.photos/seed/stall_111/480/320"
  },
  {
    "id": 112,
    "name": "四方坪地道糖油粑粑摊",
    "category": "湘味",
    "description": "四方坪夜市周边摊位，主营糖油粑粑",
    "open_time": "17:00-22:30",
    "lng": 112.995,
    "lat": 28.2487,
    "heat": 0.62,
    "status": "approved",
    "merchant_name": "merchant04",
    "image_url": "https://picsum.photos/seed/stall_112/480/320"
  },
  {
    "id": 113,
    "name": "四方坪经典卤味拼盘摊",
    "category": "甜品",
    "description": "四方坪夜市周边摊位，主营卤味拼盘",
    "open_time": "19:00-02:00",
    "lng": 112.9928,
    "lat": 28.2523,
    "heat": 0.7,
    "status": "approved",
    "merchant_name": "merchant05",
    "image_url": "https://picsum.photos/seed/stall_113/480/320"
  },
  {
    "id": 114,
    "name": "四方坪特色糖油粑粑摊",
    "category": "饮品",
    "description": "四方坪夜市周边摊位，主营糖油粑粑",
    "open_time": "17:30-23:30",
    "lng": 112.9958,
    "lat": 28.2493,
    "heat": 0.71,
    "status": "approved",
    "merchant_name": "merchant06",
    "image_url": "https://picsum.photos/seed/stall_114/480/320"
  },
  {
    "id": 115,
    "name": "四方坪夜宵糖油粑粑摊",
    "category": "饮品",
    "description": "四方坪夜市周边摊位，主营糖油粑粑",
    "open_time": "18:00-24:00",
    "lng": 112.9978,
    "lat": 28.2446,
    "heat": 0.56,
    "status": "approved",
    "merchant_name": "merchant07",
    "image_url": "https://picsum.photos/seed/stall_115/480/320"
  },
  {
    "id": 116,
    "name": "四方坪老长沙炒粉摊",
    "category": "烧烤",
    "description": "四方坪夜市周边摊位，主营炒粉",
    "open_time": "18:00-24:00",
    "lng": 112.9929,
    "lat": 28.2514,
    "heat": 0.87,
    "status": "approved",
    "merchant_name": "merchant08",
    "image_url": "https://picsum.photos/seed/stall_116/480/320"
  },
  {
    "id": 117,
    "name": "四方坪手作炒粉摊",
    "category": "饮品",
    "description": "四方坪夜市周边摊位，主营炒粉",
    "open_time": "19:00-02:00",
    "lng": 113.0001,
    "lat": 28.2466,
    "heat": 0.79,
    "status": "approved",
    "merchant_name": "merchant09",
    "image_url": "https://picsum.photos/seed/stall_117/480/320"
  },
  {
    "id": 118,
    "name": "四方坪老长沙糖油粑粑摊",
    "category": "饮品",
    "description": "四方坪夜市周边摊位，主营糖油粑粑",
    "open_time": "18:00-24:00",
    "lng": 112.9942,
    "lat": 28.2517,
    "heat": 0.96,
    "status": "approved",
    "merchant_name": "merchant10",
    "image_url": "https://picsum.photos/seed/stall_118/480/320"
  },
  {
    "id": 119,
    "name": "四方坪招牌冰粉摊",
    "category": "小吃",
    "description": "四方坪夜市周边摊位，主营冰粉",
    "open_time": "18:00-24:00",
    "lng": 112.9991,
    "lat": 28.25,
    "heat": 0.7,
    "status": "approved",
    "merchant_name": "merchant11",
    "image_url": "https://picsum.photos/seed/stall_119/480/320"
  },
  {
    "id": 120,
    "name": "四方坪风味烤生蚝摊",
    "category": "湘味",
    "description": "四方坪夜市周边摊位，主营烤生蚝",
    "open_time": "19:00-02:00",
    "lng": 112.9995,
    "lat": 28.2492,
    "heat": 0.88,
    "status": "approved",
    "merchant_name": "merchant12",
    "image_url": "https://picsum.photos/seed/stall_120/480/320"
  }
]